{
"type": "FeatureCollection",
"name": "個案分析及實地考察照片_[[2018－2020年間落成的疑似套丁屋苑]_[Case_Studies_of_Suspected_illegally-built_small_houses_(2018-2020)]",
"crs": { "type": "name", "properties": { "name": "urn:ogc:def:crs:OGC:1.3:CRS84" } },
"features": [
{ "type": "Feature", "properties": { "Name": "疑似新屋苑 (大棠)#1 實地考察圖", "FolderPath": "個案分析及實地考察照片", "PopupInfo": "<img src=\"https://doc-0g-40-mymaps.googleusercontent.com/untrusted/hostedimage/l6g5ndp3jkqtbhkj1l07plc9fc/3fokq91lunri54bn9b8biklvk0/1671438600000/D0_sYs4nERZMNjQ7yW57w9LtY6o86s2A/*/6AKgB-9laSp-_2-GWzVp2Lk1_R7Bkg-oCCEwKgFKTEoPid4pyx7FPg5rbv5u4qOMbu-Mb2jF", "District": "元朗區" }, "geometry": { "type": "Point", "coordinates": [ 114.022306900158412, 22.415646699635193, 0.0 ] } },
{ "type": "Feature", "properties": { "Name": "疑似新屋苑 (大棠)#1 實地考察圖", "FolderPath": "個案分析及實地考察照片", "PopupInfo": "<img src=\"https://doc-0c-40-mymaps.googleusercontent.com/untrusted/hostedimage/l6g5ndp3jkqtbhkj1l07plc9fc/kgfh0lmnn0q4r4cl29psvhlqek/1671438600000/D0_sYs4nERZMNjQ7yW57w9LtY6o86s2A/*/6AKgB-9lgqSZ1H1GQ4CDjTUIcUC8HXFl0mbJZkD7GN7Uqmq6zVwN-Yws0-yglL3cIGBsEAzg", "District": "元朗區" }, "geometry": { "type": "Point", "coordinates": [ 114.023319500011297, 22.415678300377056, 0.0 ] } },
{ "type": "Feature", "properties": { "Name": "疑似新屋苑 (大棠)#3 實地考察圖", "FolderPath": "個案分析及實地考察照片", "PopupInfo": "<img src=\"https://doc-0c-40-mymaps.googleusercontent.com/untrusted/hostedimage/l6g5ndp3jkqtbhkj1l07plc9fc/8asf47a4fs4q6kra3kmdugohp8/1671438600000/D0_sYs4nERZMNjQ7yW57w9LtY6o86s2A/*/6AKgB-9kxgJvb10FJ4bmG7EEXO3dKGUaD6OgtUb4uHMgcAGnX8X2L7Dgp19qJsTXfamP75iD", "District": "元朗區" }, "geometry": { "type": "Point", "coordinates": [ 114.023968600177724, 22.415780000190303, 0.0 ] } },
{ "type": "Feature", "properties": { "Name": "疑似新屋苑 (大棠)#3 實地考察圖", "FolderPath": "個案分析及實地考察照片", "PopupInfo": "<img src=\"https://doc-04-40-mymaps.googleusercontent.com/untrusted/hostedimage/l6g5ndp3jkqtbhkj1l07plc9fc/slie9ours6k0us5aes2l3jb0k0/1671438600000/D0_sYs4nERZMNjQ7yW57w9LtY6o86s2A/*/6AKgB-9nVDiGCsuzw4CGwz4V4FpKNh-OOaE18VLmdvT3QYzERQ6XYE7Xknb3TvhrvgQY4JX3", "District": "元朗區" }, "geometry": { "type": "Point", "coordinates": [ 114.023987899583304, 22.415725700230691, 0.0 ] } },
{ "type": "Feature", "properties": { "Name": "疑似新屋苑 (大棠)#3 實地考察圖", "FolderPath": "個案分析及實地考察照片", "PopupInfo": "<img src=\"https://doc-0o-40-mymaps.googleusercontent.com/untrusted/hostedimage/l6g5ndp3jkqtbhkj1l07plc9fc/3p3mriqffkvfptpb5rv8nqf3uo/1671438600000/D0_sYs4nERZMNjQ7yW57w9LtY6o86s2A/*/6AKgB-9lp3YHEqa8F_ig6So17jNGaXGpFTqkHMsXvz_RC-iDmLVgQQTk5Sjxhu80V6K2VTn0", "District": "元朗區" }, "geometry": { "type": "Point", "coordinates": [ 114.023861200297318, 22.415850599988289, 0.0 ] } },
{ "type": "Feature", "properties": { "Name": "疑似新屋苑 (大棠)#2實地考察圖", "FolderPath": "個案分析及實地考察照片", "PopupInfo": "<img src=\"https://doc-04-40-mymaps.googleusercontent.com/untrusted/hostedimage/l6g5ndp3jkqtbhkj1l07plc9fc/dljl0965u6qmt9197ckfho6q2k/1671438600000/D0_sYs4nERZMNjQ7yW57w9LtY6o86s2A/*/6AKgB-9mDQjJ4yl4TREzjjJONljH5NPxfHI_c8JRQKU67pJAux0Oa-h7vsYHUoHSVbZos3Xk", "District": "元朗區" }, "geometry": { "type": "Point", "coordinates": [ 114.02326129996068, 22.415264499748481, 0.0 ] } },
{ "type": "Feature", "properties": { "Name": "疑似新屋苑 (大棠)#2實地考察圖", "FolderPath": "個案分析及實地考察照片", "PopupInfo": "<img src=\"https://doc-14-40-mymaps.googleusercontent.com/untrusted/hostedimage/l6g5ndp3jkqtbhkj1l07plc9fc/s9jl24gkfh026s8931rlj033b4/1671438600000/D0_sYs4nERZMNjQ7yW57w9LtY6o86s2A/*/6AKgB-9nZhH29SzGQD4U2UNGdE901ZuY_oWmwe-Rh4MQpukdrggruvtFs66t0_2f0zeQyjOw", "District": "元朗區" }, "geometry": { "type": "Point", "coordinates": [ 114.023406100299653, 22.415267900410893, 0.0 ] } },
{ "type": "Feature", "properties": { "Name": "疑似新屋苑 (大棠)#2實地考察圖", "FolderPath": "個案分析及實地考察照片", "PopupInfo": "<img src=\"https://doc-00-40-mymaps.googleusercontent.com/untrusted/hostedimage/l6g5ndp3jkqtbhkj1l07plc9fc/kffto9vc6k8s1madnegm2h3nt0/1671438600000/D0_sYs4nERZMNjQ7yW57w9LtY6o86s2A/*/6AKgB-9ll8r1lhUDfSN1XPrb-jqY4-vVc8OFRt0-fJqfeju27LSAjpmDg_D4C182IbCNgMkw", "District": "元朗區" }, "geometry": { "type": "Point", "coordinates": [ 114.022851999669442, 22.415213999694114, 0.0 ] } },
{ "type": "Feature", "properties": { "Name": "疑似新屋苑 (大棠)#2實地考察圖", "FolderPath": "個案分析及實地考察照片", "PopupInfo": "<img src=\"https://doc-0s-40-mymaps.googleusercontent.com/untrusted/hostedimage/l6g5ndp3jkqtbhkj1l07plc9fc/2cfmf5kanjt8mm5f20uvcrbhfk/1671438600000/D0_sYs4nERZMNjQ7yW57w9LtY6o86s2A/*/6AKgB-9k6Go_GdZNp1S1zmzwlVywjIWRkyqHpbPaBKxkb4r6qf4oxDo_2Gpb0k9FewrHVYgp", "District": "元朗區" }, "geometry": { "type": "Point", "coordinates": [ 114.022762699943669, 22.415198500306868, 0.0 ] } },
{ "type": "Feature", "properties": { "Name": "疑似新屋苑 (白沙村)#1實地考察圖", "FolderPath": "個案分析及實地考察照片", "PopupInfo": "<img src=\"https://doc-0g-40-mymaps.googleusercontent.com/untrusted/hostedimage/l6g5ndp3jkqtbhkj1l07plc9fc/5dth7sdpvccqjbin116l0k4t70/1671438600000/D0_sYs4nERZMNjQ7yW57w9LtY6o86s2A/*/6AKgB-9lzERBpDv1MEw1JsQaZIH8curUZnvPPo-_05GHHRTW195fzZTdZXZs18sqZlNEq2sI", "District": "元朗區" }, "geometry": { "type": "Point", "coordinates": [ 114.021513299690355, 22.420223999619818, 0.0 ] } },
{ "type": "Feature", "properties": { "Name": "疑似新屋苑 (白沙村)#2實地考察圖", "FolderPath": "個案分析及實地考察照片", "PopupInfo": "<img src=\"https://doc-04-40-mymaps.googleusercontent.com/untrusted/hostedimage/l6g5ndp3jkqtbhkj1l07plc9fc/hq655tt9vvsquu1t7h0fg3h4bk/1671438600000/D0_sYs4nERZMNjQ7yW57w9LtY6o86s2A/*/6AKgB-9mrIc4Camsqfgi86ZBsYC8mFWTUsNhPhIwMrwQhUCrmPFJTHKSOeFLqK_1oU87fsB6", "District": "元朗區" }, "geometry": { "type": "Point", "coordinates": [ 114.02234500040457, 22.423035100032571, 0.0 ] } },
{ "type": "Feature", "properties": { "Name": "疑似新屋苑 (白沙村)#2實地考察圖", "FolderPath": "個案分析及實地考察照片", "PopupInfo": "<img src=\"https://doc-10-40-mymaps.googleusercontent.com/untrusted/hostedimage/l6g5ndp3jkqtbhkj1l07plc9fc/7irs1cliobks4cfjdf3u884n7g/1671438600000/D0_sYs4nERZMNjQ7yW57w9LtY6o86s2A/*/6AKgB-9ldZ2LnaJHp2XRvBUXpe2nfZ8QtOthjGnoCW_UfAkyq5FFvnBdYYOJMyR8KTiitIuj", "District": "元朗區" }, "geometry": { "type": "Point", "coordinates": [ 114.022344899793268, 22.423195299963375, 0.0 ] } },
{ "type": "Feature", "properties": { "Name": "疑似新屋苑（下竹園）#1 實地考察圖", "FolderPath": "個案分析及實地考察照片", "PopupInfo": "<img src=\"https://doc-14-40-mymaps.googleusercontent.com/untrusted/hostedimage/l6g5ndp3jkqtbhkj1l07plc9fc/pu4mlhp65f86cp6u8ij3eiksac/1671438600000/D0_sYs4nERZMNjQ7yW57w9LtY6o86s2A/*/6AKgB-9mkb8D5WZen8VXHJv3IsrLo7VTljfooocSv1S4f_rcSfPrlJxZA4wvMfnLN_Tkx1Fh", "District": "元朗區" }, "geometry": { "type": "Point", "coordinates": [ 114.054388999838821, 22.47609400006786, 0.0 ] } },
{ "type": "Feature", "properties": { "Name": "疑似新屋苑（下竹園）#1 實地考察圖", "FolderPath": "個案分析及實地考察照片", "PopupInfo": "<img src=\"https://doc-0c-40-mymaps.googleusercontent.com/untrusted/hostedimage/l6g5ndp3jkqtbhkj1l07plc9fc/jrr2cr10imbhq3vnmn58ut2als/1671438600000/D0_sYs4nERZMNjQ7yW57w9LtY6o86s2A/*/6AKgB-9lAn7TQfbphks3_O-Od9efEJCyGdo_13Q4VUup5zMM_yICg_KQ_6lHVq3RzuFf0tUS", "District": "元朗區" }, "geometry": { "type": "Point", "coordinates": [ 114.054314000394044, 22.475824999598231, 0.0 ] } },
{ "type": "Feature", "properties": { "Name": "疑似新屋苑（下竹園）#2 實地考察圖", "FolderPath": "個案分析及實地考察照片", "PopupInfo": "<img src=\"https://doc-0o-40-mymaps.googleusercontent.com/untrusted/hostedimage/l6g5ndp3jkqtbhkj1l07plc9fc/p60etscn56oldg31a3hparlp50/1671438600000/D0_sYs4nERZMNjQ7yW57w9LtY6o86s2A/*/6AKgB-9minSL_nvBmKehhyJngTxyhdYR57Ke4ZScplifkl-guvG0wB7K9sMGXH4mKfwqQV8F", "District": "元朗區" }, "geometry": { "type": "Point", "coordinates": [ 114.053962399791843, 22.475682600117544, 0.0 ] } },
{ "type": "Feature", "properties": { "Name": "疑似新屋苑(永平村)#1 實地考察圖", "FolderPath": "個案分析及實地考察照片", "PopupInfo": "<img src=\"https://doc-0o-40-mymaps.googleusercontent.com/untrusted/hostedimage/l6g5ndp3jkqtbhkj1l07plc9fc/v2ookoem7bml1m8dsg0288vn9k/1671438600000/D0_sYs4nERZMNjQ7yW57w9LtY6o86s2A/*/6AKgB-9mG72OiMLBWNXq2_TzpdJ9EdzMrMJ4Y47DVHbbY4V0n9Qpt5WDimmq0ml9kVF1WFUo", "District": "元朗區" }, "geometry": { "type": "Point", "coordinates": [ 114.077619499561465, 22.501314000351105, 0.0 ] } },
{ "type": "Feature", "properties": { "Name": "疑似新屋苑(永平村)#1 實地考察圖", "FolderPath": "個案分析及實地考察照片", "PopupInfo": "<img src=\"https://doc-0k-40-mymaps.googleusercontent.com/untrusted/hostedimage/l6g5ndp3jkqtbhkj1l07plc9fc/8sep51uha6rmhlqcol6d8e5d1c/1671438600000/D0_sYs4nERZMNjQ7yW57w9LtY6o86s2A/*/6AKgB-9nj3Kuv8jUzwuBxTxeWvaZwhlISbZhTls2u6dk8e6ihyPRk7gGM63Snl4uuSrzPQpQ", "District": "元朗區" }, "geometry": { "type": "Point", "coordinates": [ 114.077350899698288, 22.501203499647175, 0.0 ] } },
{ "type": "Feature", "properties": { "Name": "疑似新屋苑 (大棠)#1 高空俯瞰圖", "FolderPath": "個案分析及實地考察照片", "PopupInfo": "<img src=\"https://doc-0c-40-mymaps.googleusercontent.com/untrusted/hostedimage/l6g5ndp3jkqtbhkj1l07plc9fc/b67rjrbvejfl1pqosv4d4dnd54/1671438600000/D0_sYs4nERZMNjQ7yW57w9LtY6o86s2A/*/6AKgB-9kwdSlR0-iduhPUxuxbyvDmDCJAszfHA8ZiX3QonG-55J1Ikc0Y2Pc_O8sqDEfNjf_", "District": "元朗區" }, "geometry": { "type": "Point", "coordinates": [ 114.022556199717769, 22.415748400302039, 0.0 ] } },
{ "type": "Feature", "properties": { "Name": "疑似新屋苑 (白沙村)#1高空俯覽圖", "FolderPath": "個案分析及實地考察照片", "PopupInfo": "<img src=\"https://doc-0c-40-mymaps.googleusercontent.com/untrusted/hostedimage/l6g5ndp3jkqtbhkj1l07plc9fc/aerh9n98qk1mfn7h51c2oivtbo/1671438600000/D0_sYs4nERZMNjQ7yW57w9LtY6o86s2A/*/6AKgB-9mprDl1BJZiOFezQ_vf-wHzRsGxMBQhQ7HkFUXKvTvrlwJVNcD8rmAH881GRSnP2kc", "District": "元朗區" }, "geometry": { "type": "Point", "coordinates": [ 114.021502599856987, 22.419741699923332, 0.0 ] } },
{ "type": "Feature", "properties": { "Name": "疑似新屋苑 (大棠)#2高空俯覽圖", "FolderPath": "個案分析及實地考察照片", "PopupInfo": "<img src=\"https://doc-00-40-mymaps.googleusercontent.com/untrusted/hostedimage/l6g5ndp3jkqtbhkj1l07plc9fc/b3vv2v72u94mt2n2ka9vrm5ceo/1671438600000/D0_sYs4nERZMNjQ7yW57w9LtY6o86s2A/*/6AKgB-9lHZMdkV_m-BnuPU1X3MJqszf97KjDSLRgpW0LovxMUOMmE81jvA0Zm5FrRE1gNJlk", "District": "元朗區" }, "geometry": { "type": "Point", "coordinates": [ 114.02277029969099, 22.415057700286063, 0.0 ] } },
{ "type": "Feature", "properties": { "Name": "疑似新屋苑 (白沙村)#1高空俯覽圖", "FolderPath": "個案分析及實地考察照片", "PopupInfo": "<img src=\"https://doc-00-40-mymaps.googleusercontent.com/untrusted/hostedimage/l6g5ndp3jkqtbhkj1l07plc9fc/mcds40gd84vq9o5b59v64fklo0/1671438600000/D0_sYs4nERZMNjQ7yW57w9LtY6o86s2A/*/6AKgB-9lMDBbbaJSfkNQDcC5BDUryhke7UWpRAppTvOlUtALk9_SMNIWlYgiFtbixIUp4-Jd", "District": "元朗區" }, "geometry": { "type": "Point", "coordinates": [ 114.021221199899287, 22.419688000242644, 0.0 ] } },
{ "type": "Feature", "properties": { "Name": "疑似新屋苑 (大棠)#1高空俯覽圖", "FolderPath": "個案分析及實地考察照片", "PopupInfo": "<img src=\"https://doc-0s-40-mymaps.googleusercontent.com/untrusted/hostedimage/l6g5ndp3jkqtbhkj1l07plc9fc/hu3ql25tva43k2m5ssa75q6gi0/1671438600000/D0_sYs4nERZMNjQ7yW57w9LtY6o86s2A/*/6AKgB-9lkbyPQvm7ou0z1N9GdCKpzy4OsrjLhTzhaBSpESRXneeBXLbiN-1JCWOeseLssY5i", "District": "元朗區" }, "geometry": { "type": "Point", "coordinates": [ 114.022383699827003, 22.415797799829861, 0.0 ] } },
{ "type": "Feature", "properties": { "Name": "疑似新屋苑 (大棠)#2 高空俯覽圖", "FolderPath": "個案分析及實地考察照片", "PopupInfo": "<img src=\"https://doc-0o-40-mymaps.googleusercontent.com/untrusted/hostedimage/l6g5ndp3jkqtbhkj1l07plc9fc/bmdqgmtqeoj8tj1lp0o7focg3o/1671438600000/D0_sYs4nERZMNjQ7yW57w9LtY6o86s2A/*/6AKgB-9ntUbd1EiKGlhglr4eiHvpvpQknaelRyvSYlMCnkEq1savvIP7q_F41zbWcwobCDSc", "District": "元朗區" }, "geometry": { "type": "Point", "coordinates": [ 114.023525700199954, 22.415187399774865, 0.0 ] } },
{ "type": "Feature", "properties": { "Name": "疑似新屋苑 (白沙村)#1實地考察圖", "FolderPath": "個案分析及實地考察照片", "PopupInfo": "<img src=\"https://doc-14-40-mymaps.googleusercontent.com/untrusted/hostedimage/l6g5ndp3jkqtbhkj1l07plc9fc/9s3cqifbf68f6bvd1ta5tm13j4/1671438600000/D0_sYs4nERZMNjQ7yW57w9LtY6o86s2A/*/6AKgB-9leO-it822uH7y25CB7lfRkrvRNTMJJ7t8LAwbLjLV6mBvBKvRGgnVUaIZxI7IxM4t", "District": "元朗區" }, "geometry": { "type": "Point", "coordinates": [ 114.021832700181193, 22.420297899709411, 0.0 ] } },
{ "type": "Feature", "properties": { "Name": "「邊擴丁、邊套丁」(事例二)", "FolderPath": "個案分析及實地考察照片", "PopupInfo": "北區上水鄉河上鄉<br>疑似新屋苑（河上鄉）<br>數量：7幢<br><br>過往幾年有部份鄉村因缺乏興建丁屋用地而獲擴大可建丁屋的範圍（即「擴丁」），但卻同時出現將新建丁屋屋苑向不合資格人仕", "District": "北區" }, "geometry": { "type": "Point", "coordinates": [ 114.109034999893723, 22.509862999823476, 0.0 ] } },
{ "type": "Feature", "properties": { "Name": "商鄉同體(事例一)", "FolderPath": "個案分析及實地考察照片", "PopupInfo": "元朗區十八鄉大棠<br>疑似新屋苑 (元朗區十八鄉大棠)#1<br>數目：15幢<br><br>著名鄉紳涉嫌參與套丁 疑有曾任職大型發展商人士參與：以往大眾理解套丁活動是由盤踞於鄉村、由鄉紳組成的小型", "District": "元朗區" }, "geometry": { "type": "Point", "coordinates": [ 114.022854099930598, 22.415739399996138, 0.0 ] } },
{ "type": "Feature", "properties": { "Name": "「自發聚居」套丁假象(事例一)", "FolderPath": "個案分析及實地考察照片", "PopupInfo": "元朗區八鄉石湖塘<br>疑似新屋苑（石湖塘）#2<br>數目：7幢<br><br>《丁不厭詐：新界套丁研究報告2017》出版後，有鄉紳聲辯稱屋苑化的丁屋是由於原居民「自發聚居」，但研究團隊透過查冊，不", "District": "元朗區" }, "geometry": { "type": "Point", "coordinates": [ 114.072944000272983, 22.425379000402618, 0.0 ] } },
{ "type": "Feature", "properties": { "Name": "套丁「慣犯」(事例二)", "FolderPath": "個案分析及實地考察照片", "PopupInfo": "疑似新屋苑（輞井村）<br> 數目：3幢<br>#元朗區<br>#屏山鄉<br>#輞井圍<br>#SUPREME TRADE DEVELOPMENT LIMITED 齊茂發展有限公司<br>出現套丁「慣犯」：《丁不厭詐：新界套丁研究報告2017》指出，自1990年", "District": "元朗區" }, "geometry": { "type": "Point", "coordinates": [ 114.001306999931245, 22.478006000399816, 0.0 ] } },
{ "type": "Feature", "properties": { "Name": "套丁「離岸化」(事例一)", "FolderPath": "個案分析及實地考察照片", "PopupInfo": "元朗區新田鄉下竹園<br>疑似新屋苑（下竹園）#2<br>數目：5幢<br><br>套丁「離岸化」：是次研究首度發現有離岸公司(簡稱 BVI 公司)疑似參與套丁，BVI 公司私隱度高，具隱匿性，公眾難以查閱公", "District": "元朗區" }, "geometry": { "type": "Point", "coordinates": [ 114.053746999956388, 22.475683000216552, 0.0 ] } },
{ "type": "Feature", "properties": { "Name": "套丁「離岸化」(事例二)", "FolderPath": "個案分析及實地考察照片", "PopupInfo": "元朗區新田鄉下竹園<br>疑似新屋苑（下竹園）#3<br>數目：9幢<br><br>套丁「離岸化」：是次研究首度發現有離岸公司(簡稱 BVI 公司)疑似參與套丁，BVI 公司私隱度高，具隱匿性，公眾難以查閱公", "District": "元朗區" }, "geometry": { "type": "Point", "coordinates": [ 114.053833000170115, 22.474999000219864, 0.0 ] } },
{ "type": "Feature", "properties": { "Name": "「自發聚居」套丁假象(事例二)", "FolderPath": "個案分析及實地考察照片", "PopupInfo": "元朗區新田鄉永平村<br>疑似新屋苑 (元朗區新田鄉永平村)#1<br>數目：35幢<br><br>《丁不厭詐：新界套丁研究報告2017》出版後，有鄉紳聲辯稱屋苑化的丁屋是由於原居民「自發聚居」，但研究團", "District": "元朗區" }, "geometry": { "type": "Point", "coordinates": [ 114.077681999847357, 22.501026999601486, 0.0 ] } },
{ "type": "Feature", "properties": { "Name": "商鄉同體(事例二)", "FolderPath": "個案分析及實地考察照片", "PopupInfo": "元朗區十八鄉大棠疑似新屋苑（大棠）#2<br>數目：8幢<br><br>著名鄉紳涉嫌參與套丁 疑有曾任職大型發展商人士參與：以往大眾理解套丁活動是由盤踞於鄉村、由鄉紳組成的小型地產商主導。是", "District": "元朗區" }, "geometry": { "type": "Point", "coordinates": [ 114.023108100373818, 22.415134100267863, 0.0 ] } },
{ "type": "Feature", "properties": { "Name": "「邊擴丁、邊套丁」(事例一)", "FolderPath": "個案分析及實地考察照片", "PopupInfo": "屯門區屯門鄉青磚圍<br>疑似新屋苑 (青磚圍)#1<br>數目：6幢<br>疑似新屋苑 (青磚圍)#2<br>數目：6幢<br><br>過往幾年有部份鄉村因缺乏興建丁屋用地而獲擴大可建丁屋的範圍（即「擴丁」），但卻", "District": "屯門區" }, "geometry": { "type": "Point", "coordinates": [ 113.981974999895442, 22.42485400027849, 0.0 ] } },
{ "type": "Feature", "properties": { "Name": "套丁「慣犯」(事例一)", "FolderPath": "個案分析及實地考察照片", "PopupInfo": "元朗區新田鄉下竹園<br>疑似新屋苑（下竹園）#1<br>數目：34幢<br><br>《丁不厭詐：新界套丁研究報告2017》指出，自1990年起至少40多宗民事訴訟案件，香港法院判詞揭發了當中秘密合作協議的存", "District": "元朗區" }, "geometry": { "type": "Point", "coordinates": [ 114.05480450030214, 22.476036200032013, 0.0 ] } },
{ "type": "Feature", "properties": { "Name": "「邊擴丁、邊套丁」(事例三)", "FolderPath": "個案分析及實地考察照片", "PopupInfo": "元朗區廈村鄉鳳降村<br>疑似新屋苑(鳳降村)<br>數目：4幢<br><br>過往幾年有部份鄉村因缺乏興建丁屋用地而獲擴大可建丁屋的範圍（即「擴丁」），但卻同時出現將新建丁屋屋苑向不合資格人仕", "District": "元朗區" }, "geometry": { "type": "Point", "coordinates": [ 113.985344000214511, 22.457651599877789, 0.0 ] } }
]
}
