<?xml version="1.0" encoding="UTF-8"?>
<kml xmlns="http://www.opengis.net/kml/2.2">
  <Document>
    <name>「曾拆售予領展的屋邨公共設施」副本</name>
    <description><![CDATA[研究員分析房委會「全面結構勘查計畫」裡42條高齡屋邨的業權狀況，其中22條具重建潛力屋邨全屬「非拆售屋邨」，所有設施均由房委會管理。其餘被排除的20條屋邨之中，有17條屋邨的公共設施（如商場和停車場）早在2004年拆售於領展；而這17條屋邨之中，6條屋邨的物業業權已易手予其他財團，現任業主包括曾經向領展大手購入29個屋邨商場的基匯資本。<br><br>而第二期「全面結構勘查計畫」亦已經2018年展開，計劃在15年內審視71條樓齡達40年的屋邨，除了第一期的17條屋邨，還會有27條拆售屋邨列入名單。]]></description>
    <Style id="icon-1603-01579B-nodesc-normal">
      <IconStyle>
        <color>ff9b5701</color>
        <scale>1</scale>
        <Icon>
          <href>https://www.gstatic.com/mapspro/images/stock/503-wht-blank_maps.png</href>
        </Icon>
      </IconStyle>
      <LabelStyle>
        <scale>0</scale>
      </LabelStyle>
      <BalloonStyle>
        <text><![CDATA[<h3>$[name]</h3>]]></text>
      </BalloonStyle>
    </Style>
    <Style id="icon-1603-01579B-nodesc-highlight">
      <IconStyle>
        <color>ff9b5701</color>
        <scale>1</scale>
        <Icon>
          <href>https://www.gstatic.com/mapspro/images/stock/503-wht-blank_maps.png</href>
        </Icon>
      </IconStyle>
      <LabelStyle>
        <scale>1</scale>
      </LabelStyle>
      <BalloonStyle>
        <text><![CDATA[<h3>$[name]</h3>]]></text>
      </BalloonStyle>
    </Style>
    <StyleMap id="icon-1603-01579B-nodesc">
      <Pair>
        <key>normal</key>
        <styleUrl>#icon-1603-01579B-nodesc-normal</styleUrl>
      </Pair>
      <Pair>
        <key>highlight</key>
        <styleUrl>#icon-1603-01579B-nodesc-highlight</styleUrl>
      </Pair>
    </StyleMap>
    <Style id="icon-1603-F9A825-nodesc-normal">
      <IconStyle>
        <color>ff25a8f9</color>
        <scale>1</scale>
        <Icon>
          <href>https://www.gstatic.com/mapspro/images/stock/503-wht-blank_maps.png</href>
        </Icon>
      </IconStyle>
      <LabelStyle>
        <scale>0</scale>
      </LabelStyle>
      <BalloonStyle>
        <text><![CDATA[<h3>$[name]</h3>]]></text>
      </BalloonStyle>
    </Style>
    <Style id="icon-1603-F9A825-nodesc-highlight">
      <IconStyle>
        <color>ff25a8f9</color>
        <scale>1</scale>
        <Icon>
          <href>https://www.gstatic.com/mapspro/images/stock/503-wht-blank_maps.png</href>
        </Icon>
      </IconStyle>
      <LabelStyle>
        <scale>1</scale>
      </LabelStyle>
      <BalloonStyle>
        <text><![CDATA[<h3>$[name]</h3>]]></text>
      </BalloonStyle>
    </Style>
    <StyleMap id="icon-1603-F9A825-nodesc">
      <Pair>
        <key>normal</key>
        <styleUrl>#icon-1603-F9A825-nodesc-normal</styleUrl>
      </Pair>
      <Pair>
        <key>highlight</key>
        <styleUrl>#icon-1603-F9A825-nodesc-highlight</styleUrl>
      </Pair>
    </StyleMap>
    <Folder>
      <name>第一期「全面結構勘查計畫」：2005年拆售於領展的屋邨公共設施</name>
      <Placemark>
        <name>愛民邨</name>
        <styleUrl>#icon-1603-F9A825-nodesc</styleUrl>
        <Point>
          <coordinates>
            114.1788626,22.3124067,0
          </coordinates>
        </Point>
      </Placemark>
      <Placemark>
        <name>瀝源邨</name>
        <styleUrl>#icon-1603-F9A825-nodesc</styleUrl>
        <Point>
          <coordinates>
            114.1918667,22.3853356,0
          </coordinates>
        </Point>
      </Placemark>
      <Placemark>
        <name>大興邨</name>
        <styleUrl>#icon-1603-F9A825-nodesc</styleUrl>
        <Point>
          <coordinates>
            113.9704007,22.4035463,0
          </coordinates>
        </Point>
      </Placemark>
      <Placemark>
        <name>順安邨</name>
        <styleUrl>#icon-1603-F9A825-nodesc</styleUrl>
        <Point>
          <coordinates>
            114.22688,22.32842,0
          </coordinates>
        </Point>
      </Placemark>
      <Placemark>
        <name>順利邨</name>
        <styleUrl>#icon-1603-F9A825-nodesc</styleUrl>
        <Point>
          <coordinates>
            114.224837,22.3320099,0
          </coordinates>
        </Point>
      </Placemark>
      <Placemark>
        <name>大窩口邨</name>
        <styleUrl>#icon-1603-F9A825-nodesc</styleUrl>
        <Point>
          <coordinates>
            114.1255703,22.3699412,0
          </coordinates>
        </Point>
      </Placemark>
      <Placemark>
        <name>長康邨</name>
        <styleUrl>#icon-1603-F9A825-nodesc</styleUrl>
        <Point>
          <coordinates>
            114.105611,22.350027,0
          </coordinates>
        </Point>
      </Placemark>
      <Placemark>
        <name>彩雲(一)邨</name>
        <styleUrl>#icon-1603-F9A825-nodesc</styleUrl>
        <Point>
          <coordinates>
            114.2132322,22.3335347,0
          </coordinates>
        </Point>
      </Placemark>
      <Placemark>
        <name>環翠邨</name>
        <styleUrl>#icon-1603-F9A825-nodesc</styleUrl>
        <Point>
          <coordinates>
            114.2384554,22.2623439,0
          </coordinates>
        </Point>
      </Placemark>
      <Placemark>
        <name>鴨脷洲邨</name>
        <styleUrl>#icon-1603-F9A825-nodesc</styleUrl>
        <Point>
          <coordinates>
            114.15098,22.24438,0
          </coordinates>
        </Point>
      </Placemark>
      <Placemark>
        <name>安定邨</name>
        <styleUrl>#icon-1603-F9A825-nodesc</styleUrl>
        <Point>
          <coordinates>
            113.9766935,22.3874509,0
          </coordinates>
        </Point>
      </Placemark>
      <Placemark>
        <name>三聖邨</name>
        <styleUrl>#icon-1603-F9A825-nodesc</styleUrl>
        <Point>
          <coordinates>
            113.9779241,22.381318,0
          </coordinates>
        </Point>
      </Placemark>
      <Placemark>
        <name>石圍角邨</name>
        <styleUrl>#icon-1603-F9A825-nodesc</styleUrl>
        <Point>
          <coordinates>
            114.1228036,22.3745621,0
          </coordinates>
        </Point>
      </Placemark>
      <Placemark>
        <name>大元邨</name>
        <styleUrl>#icon-1603-F9A825-nodesc</styleUrl>
        <Point>
          <coordinates>
            114.1689093,22.4555134,0
          </coordinates>
        </Point>
      </Placemark>
      <Placemark>
        <name>友愛邨</name>
        <styleUrl>#icon-1603-F9A825-nodesc</styleUrl>
        <Point>
          <coordinates>
            113.9741112,22.3875107,0
          </coordinates>
        </Point>
      </Placemark>
      <Placemark>
        <name>沙角邨</name>
        <styleUrl>#icon-1603-F9A825-nodesc</styleUrl>
        <Point>
          <coordinates>
            114.1942437,22.3775971,0
          </coordinates>
        </Point>
      </Placemark>
      <Placemark>
        <name>禾輋邨</name>
        <styleUrl>#icon-1603-F9A825-nodesc</styleUrl>
        <Point>
          <coordinates>
            114.194839,22.3883527,0
          </coordinates>
        </Point>
      </Placemark>
    </Folder>
    <Folder>
      <name>第二期「全面結構勘查計畫」：拆售於領展的屋邨公共設施</name>
      <Placemark>
        <name>啟業邨</name>
        <styleUrl>#icon-1603-01579B-nodesc</styleUrl>
        <Point>
          <coordinates>
            114.2095757,22.3284729,0
          </coordinates>
        </Point>
      </Placemark>
      <Placemark>
        <name>麗閣邨</name>
        <styleUrl>#icon-1603-01579B-nodesc</styleUrl>
        <Point>
          <coordinates>
            114.1567439,22.3322268,0
          </coordinates>
        </Point>
      </Placemark>
      <Placemark>
        <name>美林邨</name>
        <styleUrl>#icon-1603-01579B-nodesc</styleUrl>
        <Point>
          <coordinates>
            114.177275,22.3781992,0
          </coordinates>
        </Point>
      </Placemark>
      <Placemark>
        <name>順天邨</name>
        <styleUrl>#icon-1603-01579B-nodesc</styleUrl>
        <Point>
          <coordinates>
            114.2277189,22.3262694,0
          </coordinates>
        </Point>
      </Placemark>
      <Placemark>
        <name>新田圍邨</name>
        <styleUrl>#icon-1603-01579B-nodesc</styleUrl>
        <Point>
          <coordinates>
            114.1864029,22.3699666,0
          </coordinates>
        </Point>
      </Placemark>
      <Placemark>
        <name>彩園邨</name>
        <styleUrl>#icon-1603-01579B-nodesc</styleUrl>
        <Point>
          <coordinates>
            114.1257942,22.5006729,0
          </coordinates>
        </Point>
      </Placemark>
      <Placemark>
        <name>興民邨</name>
        <styleUrl>#icon-1603-01579B-nodesc</styleUrl>
        <Point>
          <coordinates>
            114.2330081,22.2677569,0
          </coordinates>
        </Point>
      </Placemark>
      <Placemark>
        <name>樂華南邨</name>
        <styleUrl>#icon-1603-01579B-nodesc</styleUrl>
        <Point>
          <coordinates>
            114.219605,22.320878,0
          </coordinates>
        </Point>
      </Placemark>
      <Placemark>
        <name>黄大仙下邨二區龍樂樓</name>
        <styleUrl>#icon-1603-01579B-nodesc</styleUrl>
        <Point>
          <coordinates>
            114.1924514,22.3408603,0
          </coordinates>
        </Point>
      </Placemark>
      <Placemark>
        <name>橫頭磡邨</name>
        <styleUrl>#icon-1603-01579B-nodesc</styleUrl>
        <Point>
          <coordinates>
            114.1874082,22.340703,0
          </coordinates>
        </Point>
      </Placemark>
      <Placemark>
        <name>蝴蝶邨</name>
        <styleUrl>#icon-1603-01579B-nodesc</styleUrl>
        <Point>
          <coordinates>
            113.9618561,22.375828,0
          </coordinates>
        </Point>
      </Placemark>
      <Placemark>
        <name>廣福邨</name>
        <styleUrl>#icon-1603-01579B-nodesc</styleUrl>
        <Point>
          <coordinates>
            114.1745356,22.4486227,0
          </coordinates>
        </Point>
      </Placemark>
      <Placemark>
        <name>隆亨邨</name>
        <styleUrl>#icon-1603-01579B-nodesc</styleUrl>
        <Point>
          <coordinates>
            114.178431,22.365241,0
          </coordinates>
        </Point>
      </Placemark>
      <Placemark>
        <name>新翠邨</name>
        <styleUrl>#icon-1603-01579B-nodesc</styleUrl>
        <Point>
          <coordinates>
            114.1807203,22.3703577,0
          </coordinates>
        </Point>
      </Placemark>
      <Placemark>
        <name>竹園南邨</name>
        <styleUrl>#icon-1603-01579B-nodesc</styleUrl>
        <Point>
          <coordinates>
            114.1905908,22.34458,0
          </coordinates>
        </Point>
      </Placemark>
      <Placemark>
        <name>秦石邨</name>
        <styleUrl>#icon-1603-01579B-nodesc</styleUrl>
        <Point>
          <coordinates>
            114.1864793,22.3734582,0
          </coordinates>
        </Point>
      </Placemark>
      <Placemark>
        <name>樂富邨</name>
        <styleUrl>#icon-1603-01579B-nodesc</styleUrl>
        <Point>
          <coordinates>
            114.1873337,22.3390255,0
          </coordinates>
        </Point>
      </Placemark>
      <Placemark>
        <name>秀茂坪邨</name>
        <styleUrl>#icon-1603-01579B-nodesc</styleUrl>
        <Point>
          <coordinates>
            114.23259,22.3176147,0
          </coordinates>
        </Point>
      </Placemark>
      <Placemark>
        <name>樂華北邨</name>
        <styleUrl>#icon-1603-01579B-nodesc</styleUrl>
        <Point>
          <coordinates>
            114.2197325,22.3222916,0
          </coordinates>
        </Point>
      </Placemark>
      <Placemark>
        <name>石籬(一)邨</name>
        <styleUrl>#icon-1603-01579B-nodesc</styleUrl>
        <Point>
          <coordinates>
            114.1383616,22.3637896,0
          </coordinates>
        </Point>
      </Placemark>
      <Placemark>
        <name>葵芳邨</name>
        <styleUrl>#icon-1603-01579B-nodesc</styleUrl>
        <Point>
          <coordinates>
            114.1294899,22.3591267,0
          </coordinates>
        </Point>
      </Placemark>
      <Placemark>
        <name>葵盛東邨</name>
        <styleUrl>#icon-1603-01579B-nodesc</styleUrl>
        <Point>
          <coordinates>
            114.1269101,22.3644933,0
          </coordinates>
        </Point>
      </Placemark>
      <Placemark>
        <name>翠屏南邨</name>
        <styleUrl>#icon-1603-01579B-nodesc</styleUrl>
        <Point>
          <coordinates>
            114.232098,22.312019,0
          </coordinates>
        </Point>
      </Placemark>
      <Placemark>
        <name>長亨邨</name>
        <styleUrl>#icon-1603-01579B-nodesc</styleUrl>
        <Point>
          <coordinates>
            114.098041,22.355617,0
          </coordinates>
        </Point>
      </Placemark>
      <Placemark>
        <name>小西灣邨</name>
        <styleUrl>#icon-1603-01579B-nodesc</styleUrl>
        <Point>
          <coordinates>
            114.2489845,22.2618244,0
          </coordinates>
        </Point>
      </Placemark>
      <Placemark>
        <name>廣田邨</name>
        <styleUrl>#icon-1603-01579B-nodesc</styleUrl>
        <Point>
          <coordinates>
            114.2405204,22.302954,0
          </coordinates>
        </Point>
      </Placemark>
      <Placemark>
        <name>天耀邨</name>
        <styleUrl>#icon-1603-01579B-nodesc</styleUrl>
        <Point>
          <coordinates>
            114.0045536,22.4511112,0
          </coordinates>
        </Point>
      </Placemark>
    </Folder>
  </Document>
</kml>
